Longitude,Latitude,Day,Violation Code,Street,Time Range,Cluster
-0.11022222130442386,0.03389355553499915,Wednesday,1.0,Edmonton ST,Daytime (9:00am-3:30pm),0.0
0.03221486437398647,0.20579916891171934,Thursday,1.0,McDermot AVE,Daytime (9:00am-3:30pm),1.0
0.5558806205434658,0.16204137641568964,Tuesday,1.0,Bannatyne AVE,Daytime (9:00am-3:30pm),2.0
0.6270991633825221,0.17766915945001768,Monday,1.0,William AVE,Daytime (9:00am-3:30pm),3.0
0.30452105758202047,0.16829248962959853,Friday,6.0,William AVE,Evening (5:00pm-11:00pm),4.0
-2.942206630669882,-0.13801205784216522,Saturday,12.0,Lombard AVE,Daytime (9:00am-3:30pm),5.0
0.3631716222731831,0.16204137641568964,Friday,1.0,Hargrave ST,Daytime (9:00am-3:30pm),6.0
-3.4239791263458867,-0.15676539748300355,Sunday,39.0,William AVE,Overnight (11:00pm-5:30am),7.0
-0.33225650192028783,0.16829248962959853,Thursday,3.0,Broadway,Rush Hour Evening (3:30pm-5:00pm),8.0
